bibcode,Location,lat,long,address,country,state,trusted,count
2013IAUS..288..218R,Space Telescope Science Institute Baltimore MD 21218 USA,39.3327755,-76.6233337,"Steven Muller Building Space Telescope Science Institute, Baltimore, MD 21210, USA",United States,Maryland,False,1
2013IAUS..288..218R,DLR Institute for Planetary Research 12489 Berlin Germany,52.4370179,13.5470509,"12489 Berlin, Germany",Germany,Berlin,False,3
2013IAUS..288..218R,Department of Physics University of Oxford Oxford OX1 3RH United Kingdom,51.7598294,-1.2595874,"Physics Department, University of Oxford, Oxford, Oxfordshire OX1 3RH, UK",United Kingdom,NULL,False,1
2013IAUS..288..218R,Harvard-Smithsonian Center for Astrophysics Cambridge MA 02138 USA,42.3814605,-71.1281638,"Center For Astrophysics, Harvard University, 60 Garden Street, Cambridge, MA 02138, USA",United States,Massachusetts,True,1
2008PhDT........70O,California Institute of Technology,34.1376576,-118.125269,"California Institute of Technology, 1200 East California Boulevard, Pasadena, CA 91125, USA",United States,California,True,1
